id,name,lat,long,items,weight
1,Baan_A,14.010,100.530,3,15
2,Baan_B,13.985,100.550,5,30
3,Baan_C,14.020,100.510,4,12
4,Baan_D,13.970,100.520,2,25
5,Baan_E,14.030,100.540,1,5
6,Baan_F,14.050,100.600,3,10
7,Baan_G,13.950,100.580,6,20
8,Baan_H,14.000,100.450,2,15
9,Baan_I,14.080,100.520,4,18
10,Baan_J,13.920,100.500,2,10
11,Baan_K,14.040,100.560,5,22
12,Baan_L,13.980,100.620,3,12
13,Baan_M,14.100,100.550,4,28
14,Baan_N,13.900,100.550,2,8
15,Baan_O,14.020,100.480,1,5